id_ban_commune;id_ban_adresse;id_ban_toponyme;cle_interop;commune_insee;commune_nom;voie_nom;numero;position;x;y;long;lat;source;date_der_maj;certification_commune;voie_nom_fra;voie_nom_hyl;commune_nom_fra
917708c6-2dff-4d08-b9f7-05e5ce641258;50f40a11-0f67-47d1-93c2-007c4ab4ad1b;194772c8-28ca-420f-bc3a-0e5e090a7991;96004_5a26bf_00001;96004;Euzero;Rohuuteh duu Vehnth;1;entrée;128289.65;6681329.34;-4.533391;46.986547;commune;2025-07-28T00:00:00.000Z;true;Route du Vent;Rohuuteh duu Vehnth;Euzero
ad0f57d0-92f4-4d30-92a7-86f5f295061d;dad5ca60-1c21-457d-a82f-45e0bc3a1010;194772c8-28ca-420f-bc3a-0e5e090a7991;96004_e0447b_00002;96004;Euzero;Rohuuteh duu Vehnth;2;logement;128231.58;6681404.39;-4.534246;46.98717;commune;2025-07-28T00:00:00.000Z;true;Route du Vent;Rohuuteh duu Vehnth;Euzero
1fef353c-1e14-4bdd-b7ed-19868d3f13cc;d37d4b75-0915-4301-98f5-cffb98fdfc37;194772c8-28ca-420f-bc3a-0e5e090a7991;96004_5e6340_99999;96004;Euzero;Rohuuteh duu Vehnth;99999;bâtiment;128208.85;6681423.49;-4.534568;46.987322;commune;2025-07-28T00:00:00.000Z;true;Route du Vent;Rohuuteh duu Vehnth;Euzero
782bd2b4-cbd3-4034-b5d1-0ebcc0aa6ab3;14f919fd-73e7-4669-a986-7585cf9079f5;194772c8-28ca-420f-bc3a-0e5e090a7991;96004_3b50b2_00004;96004;Euzero;Rohuuteh duu Vehnth;4;logement;128209.81;6681232.72;-4.534316;46.985613;commune;2025-07-28T00:00:00.000Z;true;Route du Vent;Rohuuteh duu Vehnth;Euzero
b1c1aeb2-9423-44ca-b691-3dcaf138b551;96b5ea71-9892-458f-b525-6ab872f3d93e;194772c8-28ca-420f-bc3a-0e5e090a7991;96004_4eeb36_00005;96004;Euzero;Rohuuteh duu Vehnth;5;bâtiment;127849.51;6681585.35;-4.539477;46.988464;commune;2025-07-28T00:00:00.000Z;true;Route du Vent;Rohuuteh duu Vehnth;Euzero
2aa30dbd-f063-4d0a-8edf-b75b1d3e62d4;c63b55f5-db24-4cda-9f71-caf94d0f821e;194772c8-28ca-420f-bc3a-0e5e090a7991;96004_ce2958_99999;96004;Euzero;Rohuuteh duu Vehnth;99999;bâtiment;128297.59;6681447.57;-4.533436;46.987614;commune;2025-07-28T00:00:00.000Z;true;Route du Vent;Rohuuteh duu Vehnth;Euzero
d6738264-139d-4874-93f0-2a6f1dece178;569c2a44-a2bf-410f-a7ae-8310d5820ceb;194772c8-28ca-420f-bc3a-0e5e090a7991;96004_15b7c7_00007;96004;Euzero;Rohuuteh duu Vehnth;7;entrée;128154.19;6681532.62;-4.53542;46.988253;commune;2025-07-28T00:00:00.000Z;true;Route du Vent;Rohuuteh duu Vehnth;Euzero
9e812c12-0536-4ffd-a59d-239b66044dc2;1a7704a7-88fa-49ab-bb72-4cc78ce3cbca;194772c8-28ca-420f-bc3a-0e5e090a7991;96004_5aa134_00008;96004;Euzero;Rohuuteh duu Vehnth;8;logement;127779.62;6681202.07;-4.539912;46.984969;commune;2025-07-28T00:00:00.000Z;true;Route du Vent;Rohuuteh duu Vehnth;Euzero
5f54ce60-828b-44aa-b02b-9ff82a613dfa;b8a832bd-ce5a-4ee8-b1a1-1e9d016b029a;1ed61499-9536-49df-85b7-93409bc9d202;96004_8ce5d0_00001;96004;Euzero;Ruueh duu Mohnohkleh Shehiikahhh;1;entrée;128539.72;6681396.44;-4.5302;46.987363;commune;2025-07-28T00:00:00.000Z;true;Rue du Monocle Sheikah;Ruueh duu Mohnohkleh Shehiikahhh;Euzero
cd439ce7-61c2-49d7-88c2-5a66dc2e8024;e69fe1da-8603-4861-bbe5-652e13354db8;1ed61499-9536-49df-85b7-93409bc9d202;96004_99968e_00002;96004;Euzero;Ruueh duu Mohnohkleh Shehiikahhh;2;logement;127960.82;6681706.49;-4.538171;46.989646;commune;2025-07-28T00:00:00.000Z;true;Rue du Monocle Sheikah;Ruueh duu Mohnohkleh Shehiikahhh;Euzero
d8fc6b73-e46d-4ce3-88fb-f45d527c6a64;c15760e3-8508-408f-82ca-f0c587609202;1ed61499-9536-49df-85b7-93409bc9d202;96004_7f041c_00003;96004;Euzero;Ruueh duu Mohnohkleh Shehiikahhh;3;entrée;128309.54;6681386.02;-4.533202;46.987073;commune;2025-07-28T00:00:00.000Z;true;Rue du Monocle Sheikah;Ruueh duu Mohnohkleh Shehiikahhh;Euzero
dd27d3da-8784-41e6-bc89-ee4a0876d879;a0182271-537e-4e9f-bf7a-537f7c554478;1ed61499-9536-49df-85b7-93409bc9d202;96004_84f962_00004;96004;Euzero;Ruueh duu Mohnohkleh Shehiikahhh;4;entrée;128671.14;6681440.37;-4.528534;46.98787;commune;2025-07-28T00:00:00.000Z;true;Rue du Monocle Sheikah;Ruueh duu Mohnohkleh Shehiikahhh;Euzero
a5389072-0f2f-4317-ac62-59ea242d4ba5;0806f6ff-661f-44a1-9e53-4bf366f4178f;ed520fcc-f6d4-49fb-9ad2-51890a83a0e1;96004_50fa49_00001;96004;Euzero;Ahvehnuueh duu Sahnktuuahiirehh;1;entrée;128031.13;6681031.69;-4.536404;46.983658;commune;2025-07-28T00:00:00.000Z;true;Avenue du Sanctuaire;Ahvehnuueh duu Sahnktuuahiirehh;Euzero
3aabf141-cdaf-45ee-97d0-e050208777d9;6ff34da8-6e63-4f7e-a6dd-9e3c942cdbe0;ed520fcc-f6d4-49fb-9ad2-51890a83a0e1;96004_7876ce_99999;96004;Euzero;Ahvehnuueh duu Sahnktuuahiirehh;99999;entrée;128160.61;6681415.0;-4.535189;46.987205;commune;2025-07-28T00:00:00.000Z;true;Avenue du Sanctuaire;Ahvehnuueh duu Sahnktuuahiirehh;Euzero
4c13bdbb-48c2-4703-8148-ef07710130fd;e134a64b-6545-42fe-bfd7-8b4b98df4427;ed520fcc-f6d4-49fb-9ad2-51890a83a0e1;96004_3d315d_99999;96004;Euzero;Ahvehnuueh duu Sahnktuuahiirehh;99999;logement;128068.6;6681494.53;-4.536494;46.987838;commune;2025-07-28T00:00:00.000Z;true;Avenue du Sanctuaire;Ahvehnuueh duu Sahnktuuahiirehh;Euzero
b1a442da-bc80-478e-bc2c-589c0ef2b9e5;f246a87b-dcb1-4f2f-a8f9-2710dd023fc9;ed520fcc-f6d4-49fb-9ad2-51890a83a0e1;96004_421db2_00004;96004;Euzero;Ahvehnuueh duu Sahnktuuahiirehh;4;logement;128362.24;6681603.38;-4.532784;46.989066;commune;2025-07-28T00:00:00.000Z;true;Avenue du Sanctuaire;Ahvehnuueh duu Sahnktuuahiirehh;Euzero
c1ce42fa-d878-43b8-86f5-36c4b8a8e6b4;8f8e4503-af23-4fe8-bd1e-7110c2ac952d;ed520fcc-f6d4-49fb-9ad2-51890a83a0e1;96004_bc6fbe_00005;96004;Euzero;Ahvehnuueh duu Sahnktuuahiirehh;5;logement;128115.8;6681534.86;-4.535926;46.98824;commune;2025-07-28T00:00:00.000Z;true;Avenue du Sanctuaire;Ahvehnuueh duu Sahnktuuahiirehh;Euzero
340c8229-44fa-47ad-8c12-3d2fdc5bdafb;d539e8c7-42f5-4b73-aca7-2fbdd86cd67f;ed520fcc-f6d4-49fb-9ad2-51890a83a0e1;96004_f41f78_00006;96004;Euzero;Ahvehnuueh duu Sahnktuuahiirehh;6;entrée;128058.52;6681287.96;-4.536367;46.985978;commune;2025-07-28T00:00:00.000Z;true;Avenue du Sanctuaire;Ahvehnuueh duu Sahnktuuahiirehh;Euzero
